,City Name,Cloudiness,Country,Date,Humidity,Lat,Lng,Max Temp,Wind Speed
0,Punta Arenas,40,CL,1547413200,54,-53.16,-70.91,55.4,26.4
1,Barrow,88,AR,1547414815,92,-38.31,-60.23,69.72,11.68
2,Puerto Ayora,75,EC,1547413200,78,-0.74,-90.35,78.8,16.11
3,Margate,0,AU,1547413200,59,-43.03,147.26,64.4,3.36
4,Port Alfred,24,ZA,1547414818,89,-33.59,26.89,68.64,7.31
5,Druzhinino,80,RU,1547414819,74,56.79,59.52,20.62,9.33
6,Iqaluit,90,CA,1547413200,76,63.75,-68.52,-11.21,3.36
7,Kaitangata,56,NZ,1547414647,84,-46.28,169.85,55.54,14.7
8,Hermanus,12,ZA,1547414823,95,-34.42,19.24,57.3,3.29
9,East London,0,ZA,1547415078,100,-33.02,27.91,72.15,9.22
10,New Norfolk,0,AU,1547413200,59,-42.78,147.06,64.4,3.36
11,Mawlaik,0,MM,1547415080,92,23.63,94.42,55.59,3.4
12,Castro,0,CL,1547413200,52,-42.48,-73.76,64.4,8.05
13,San Julian,0,SV,1547412600,39,13.7,-89.56,87.8,13.87
14,Carnarvon,0,ZA,1547414890,38,-30.97,22.13,64.5,8.77
15,Tuktoyaktuk,40,CA,1547413200,74,69.44,-133.03,-25.61,14.99
16,Aklavik,40,CA,1547413200,67,68.22,-135.01,-22.01,10.29
17,Bonavista,44,CA,1547415088,100,48.65,-53.11,26.2,23.42
18,Lakes Entrance,0,AU,1547414862,82,-37.88,147.99,72.1,7.65
19,Provideniya,0,RU,1547413200,64,64.42,-173.23,-0.41,26.84
20,Namatanai,20,PG,1547414910,100,-3.66,152.44,79.48,11.79
21,Tyumentsevo,0,RU,1547415092,71,53.32,81.5,1.59,10.22
22,Jamestown,0,AU,1547415094,79,-33.21,138.6,62.02,2.95
23,Vaini,0,IN,1547415097,79,15.34,74.49,58.78,2.62
24,Saldanha,0,PT,1547415098,84,41.42,-6.55,26.11,2.73
25,Mataura,92,NZ,1547414860,88,-46.19,168.86,55.27,10.22
26,Hirara,8,JP,1547415100,100,24.8,125.28,69.13,16.04
27,Busselton,0,AU,1547415101,100,-33.64,115.35,59.55,18.05
28,Ushuaia,75,AR,1547413200,57,-54.81,-68.31,57.2,23.04
29,Yellowknife,40,CA,1547413200,67,62.45,-114.38,-23.81,3.51
30,Mar del Plata,0,AR,1547415105,24,-46.43,-67.52,79.62,5.97
31,Solnechnyy,20,RU,1547415106,59,50.72,136.64,-20.56,2.39
32,Vostok,8,RU,1547415109,53,46.45,135.83,-11.47,2.06
33,Lebu,0,ET,1547409600,28,8.96,38.73,55.4,4.18
34,Cherskiy,20,RU,1547415111,48,68.75,161.3,-29.24,2.62
35,Butaritari,68,KI,1547415113,100,3.07,172.79,82.36,15.82
36,Souillac,90,FR,1547413200,93,45.6,-0.6,50.0,9.17
37,Kapaa,75,US,1547412960,62,22.08,-159.32,78.98,11.41
38,Rikitea,76,PF,1547415116,99,-23.12,-134.97,79.62,11.56
39,Severomorsk,75,RU,1547413200,92,69.07,33.42,19.4,2.24
40,Zhigansk,44,RU,1547415119,63,66.77,123.37,-21.23,3.62
41,Mandalgovi,20,MN,1547415121,64,45.76,106.27,0.24,13.8
42,Komsomolskiy,88,RU,1547415122,79,67.55,63.78,3.7,12.8
43,Pangnirtung,90,CA,1547413200,75,66.15,-65.72,-18.41,3.36
44,Nikolskoye,75,RU,1547413200,92,59.7,30.79,26.6,6.71
45,Cidreira,48,BR,1547415126,81,-30.17,-50.22,82.59,11.01
46,Arraial do Cabo,0,BR,1547409600,74,-22.97,-42.02,86.0,14.99
47,Tevaitoa,88,PF,1547415129,100,-16.78,-151.5,82.72,15.48
48,Umm Lajj,48,SA,1547415130,99,25.02,37.27,66.88,15.03
49,Lasa,40,CY,1547413200,87,34.92,32.53,50.0,3.36
50,Denpasar,20,ID,1547413200,94,-8.65,115.22,78.8,5.82
51,Sao Felix do Xingu,68,BR,1547415134,84,-6.64,-51.99,78.99,2.28
52,Touros,40,BR,1547413200,78,-5.2,-35.46,82.4,12.75
53,Khatanga,32,RU,1547415140,70,71.98,102.47,-36.08,5.41
54,Luderitz,20,NA,1547415141,89,-26.65,15.16,63.28,12.91
55,Codrington,40,AU,1547413200,78,-28.95,153.24,75.2,3.51
56,Bluff,0,AU,1547414865,69,-23.58,149.07,72.15,10.56
57,Lincoln,20,GB,1547412600,75,53.23,-0.54,46.4,18.34
58,Redcliffe,75,GB,1547412960,76,51.45,-2.59,48.74,12.75
59,Atuona,24,PF,1547415148,100,-9.8,-139.03,81.1,17.05
60,Faanui,80,PF,1547414917,100,-16.48,-151.75,82.45,15.48
61,Pringsewu,88,ID,1547415152,96,-5.36,104.98,73.0,1.05
62,Hobart,0,AU,1547413200,59,-42.88,147.33,64.4,3.36
63,Saint George,40,GR,1547412600,86,39.45,22.34,33.8,2.73
64,Saint-Philippe,90,CA,1547414160,66,45.36,-73.48,12.2,2.24
65,Guerrero Negro,44,MX,1547414928,77,27.97,-114.04,64.72,3.29
66,Severo-Kurilsk,88,RU,1547414900,100,50.68,156.12,26.52,3.74
67,Cape Town,20,ZA,1547413200,82,-33.93,18.42,60.8,5.82
68,Albany,20,US,1547412840,44,42.65,-73.75,21.2,8.05
69,Qaanaaq,0,GL,1547415161,100,77.48,-69.36,-25.55,9.78
70,Zalesovo,0,RU,1547415163,61,54.0,84.74,-2.74,6.2
71,Tuatapere,88,NZ,1547415164,100,-46.13,167.69,53.07,8.77
72,Kaberamaido,0,UG,1547415165,46,1.76,33.16,70.48,11.68
73,Hokitika,0,NZ,1547415168,100,-42.72,170.96,58.29,2.73
74,Beloha,92,MG,1547415169,95,-25.17,45.06,73.14,2.95
75,Samana,40,EC,1547413200,62,0.12,-76.97,86.0,3.36
76,Arlit,0,NE,1547415172,44,18.74,7.39,55.63,8.21
77,Presidente Epitacio,32,BR,1547415173,76,-21.76,-52.12,85.51,2.28
78,Isangel,44,VU,1547414983,100,-19.55,169.27,78.94,5.64
79,Guasdualito,20,VE,1547413200,49,7.24,-70.73,89.6,3.36
80,Teahupoo,40,PF,1547411400,74,-17.83,-149.27,84.2,17.22
81,Henties Bay,100,NA,1547415179,98,-22.12,14.28,64.36,7.09
82,Mount Isa,0,AU,1547413200,31,-20.73,139.49,78.8,5.82
83,San Angelo,90,US,1547413800,70,31.46,-100.44,42.08,8.05
84,Eyl,68,SO,1547415183,98,7.98,49.82,73.09,14.81
85,Taoudenni,0,ML,1547415184,29,22.68,-3.98,50.59,11.01
86,Avarua,40,CK,1547413200,74,-21.21,-159.78,84.2,8.05
87,Puerto Madryn,0,AR,1547415187,57,-42.77,-65.04,71.47,15.26
88,Constitucion,5,MX,1547412180,11,23.99,-104.67,71.6,17.22
89,Kargopol,76,RU,1547415190,92,61.51,38.95,21.34,10.45
90,Vila Velha,75,BR,1547413200,83,-3.71,-38.6,82.4,5.82
91,Esperance,20,TT,1547413200,61,10.24,-61.45,82.4,11.41
92,Jimenez,20,PA,1547413200,31,8.54,-82.37,91.4,14.99
93,Okha,12,RU,1547415194,81,53.59,142.95,1.63,9.78
94,Yaan,12,NG,1547415196,66,7.38,8.57,74.4,3.06
95,San Patricio,56,PY,1547415197,83,-26.98,-56.83,85.51,2.51
96,Puerto Colombia,20,CO,1547413200,66,10.99,-74.96,84.2,13.87
97,Yumen,76,CN,1547415199,70,40.29,97.04,5.64,7.31
98,Xiaoshi,88,CN,1547415201,84,30.59,116.63,34.39,4.07
99,Cabo San Lucas,5,MX,1547412180,53,22.89,-109.91,78.8,3.36
100,Bredasdorp,32,ZA,1547413200,72,-34.53,20.04,68.0,3.36
101,Melfi,90,IT,1547412900,88,41.0,15.66,33.8,18.34
102,Misratah,68,LY,1547414957,100,32.38,15.09,54.15,22.75
103,Victoria,75,BN,1547413200,88,5.28,115.24,78.8,3.36
104,Carmen del Parana,75,PY,1547413200,74,-27.23,-56.22,91.4,3.36
105,Grindavik,75,IS,1547413200,74,63.84,-22.43,28.4,8.05
106,Ust-Tsilma,76,RU,1547415211,77,65.44,52.15,17.25,7.65
107,Ornskoldsvik,0,SE,1547412600,79,63.29,18.72,26.6,12.75
108,Hofn,80,IS,1547415214,100,64.25,-15.21,26.79,7.87
109,Laguna,5,MX,1547412000,24,27.52,-110.01,78.8,5.82
110,Zhirnovsk,76,RU,1547415216,89,50.98,44.78,18.01,6.42
111,Qaqortoq,8,GL,1547412600,62,60.72,-46.03,24.8,8.05
112,Alofi,0,NU,1547413200,70,-19.06,-169.92,84.2,10.29
113,Lagunas,24,PE,1547415220,40,-5.23,-75.68,93.97,3.4
114,Airai,48,TL,1547415221,89,-8.93,125.41,69.54,1.5
115,Dikson,80,RU,1547415222,99,73.51,80.55,1.72,30.24
116,Berlevag,40,NO,1547412600,92,70.86,29.09,28.4,13.87
117,High Level,90,CA,1547413200,84,58.52,-117.13,1.4,5.82
118,Sao Filipe,20,CV,1547415227,96,14.9,-24.5,72.6,12.68
119,Necochea,88,AR,1547415114,93,-38.55,-58.74,67.69,13.58
120,Ahipara,88,NZ,1547415229,88,-35.17,173.16,68.55,18.84
121,Katsuura,20,JP,1547413200,100,33.93,134.5,35.6,9.17
122,Sobolevo,92,RU,1547415232,95,54.43,31.9,29.67,14.92
123,Alta Floresta,20,BR,1547409600,52,-9.87,-56.08,89.6,5.82
124,Port Hardy,75,CA,1547413200,81,50.7,-127.42,50.0,6.93
125,Batticaloa,92,LK,1547415238,100,7.71,81.69,75.88,7.54
126,Thompson,20,CA,1547413200,72,55.74,-97.86,15.8,10.29
127,Budureasa,44,RO,1547413200,92,46.68,22.5,33.8,19.46
128,Shenjiamen,92,CN,1547415242,96,29.96,122.3,49.69,9.66
129,Nemuro,8,JP,1547415243,100,43.32,145.57,26.52,11.79
130,Conceicao do Araguaia,20,BR,1547414979,100,-8.26,-49.26,80.52,2.62
131,Hilo,90,US,1547412780,62,19.71,-155.08,77.0,6.93
132,Cabedelo,20,BR,1547413200,78,-6.97,-34.84,80.6,12.75
133,Paso de los Toros,92,UY,1547415249,100,-32.81,-56.52,69.72,4.97
134,Moose Factory,90,CA,1547413200,66,51.26,-80.61,15.8,16.11
135,Batemans Bay,80,AU,1547415252,100,-35.71,150.18,67.51,2.17
136,Coquimbo,20,CL,1547413200,56,-29.95,-71.34,69.8,13.87
137,Port Elizabeth,90,US,1547413260,81,39.31,-74.98,32.0,14.99
138,Jiayuguan,48,CN,1547415255,73,39.77,98.29,-7.69,2.73
139,Troitsko-Pechorsk,80,RU,1547415257,79,62.71,56.19,15.22,7.65
140,Yulara,0,AU,1547413200,20,-25.24,130.99,84.2,6.93
141,Mandera,0,ET,1547415260,30,3.94,41.86,69.49,3.96
142,Rawson,0,AR,1547415262,24,-43.3,-65.11,81.46,11.01
143,Bagdarin,20,RU,1547415263,32,54.44,113.59,-11.06,8.66
144,Bambous Virieux,40,MU,1547413200,74,-20.34,57.76,78.8,11.41
145,Puerto Baquerizo Moreno,90,EC,1547413200,88,-0.9,-89.6,77.0,10.29
146,Hamilton,75,BM,1547412900,68,32.3,-64.78,64.4,6.93
147,Sola,40,NO,1547412600,51,58.89,5.65,37.4,32.21
148,Hithadhoo,92,MV,1547415272,100,-0.6,73.08,82.36,6.76
149,Kerema,8,PG,1547415273,91,-7.96,145.78,72.46,2.17
150,Georgetown,20,GY,1547413200,62,6.8,-58.16,84.2,16.11
151,Alice Springs,8,AU,1547413200,31,-23.7,133.88,77.0,3.36
152,Manga,0,BF,1547415283,29,11.67,-1.07,73.14,7.43
153,Samoded,44,RU,1547415284,79,63.61,40.52,21.75,6.42
154,Zomin,44,UZ,1547415286,46,39.96,68.4,33.49,11.79
155,Longyearbyen,20,NO,1547412600,61,78.22,15.63,14.0,21.92
156,Bethel,90,US,1547412960,91,60.79,-161.76,30.92,13.87
157,Novogurovskiy,80,RU,1547413200,86,54.47,37.34,26.6,8.95
158,Upernavik,44,GL,1547415291,100,72.79,-56.15,-11.42,7.43
159,Lianzhou,92,CN,1547415292,98,24.79,112.38,43.93,2.62
160,Praia da Vitoria,75,PT,1547413200,82,38.73,-27.07,60.8,17.27
161,Ziarat,0,PK,1547415294,57,30.38,67.73,8.34,2.17
162,Hay River,75,CA,1547413200,68,60.82,-115.79,-16.61,3.74
163,Mizdah,0,LY,1547415297,81,31.45,12.98,40.2,11.01
164,Yerbogachen,24,RU,1547415298,68,61.28,108.01,-23.44,7.99
165,Ust-Maya,32,RU,1547415300,0,60.42,134.54,-45.04,2.62
166,Broken Hill,8,AU,1547413200,22,-31.97,141.45,78.8,9.17
167,Anadyr,20,RU,1547411400,67,64.73,177.51,-22.01,11.18
168,Norman Wells,75,CA,1547413200,68,65.28,-126.83,-14.81,12.75
169,Portland,20,US,1547412780,45,45.52,-122.67,53.96,19.46
170,Pevek,0,RU,1547415308,99,69.7,170.27,-29.96,3.4
171,Shubarshi,88,KZ,1547415309,91,48.59,57.19,26.47,3.29
172,Sept-Iles,20,CA,1547413200,60,50.2,-66.38,8.6,5.82
173,Nome,1,US,1547414100,45,30.04,-94.42,59.0,12.75
174,Pilar,40,AR,1547413200,73,-34.46,-58.91,78.8,10.29
175,Vao,92,EE,1547415315,98,59.1,26.19,27.01,8.77
176,Chebsara,68,RU,1547415318,85,59.2,38.84,19.95,7.76
177,Pisco,0,PE,1547413200,30,-13.71,-76.2,71.6,20.8
178,Ocos,75,GT,1547413200,48,14.51,-92.19,87.8,6.93
179,Masuguru,80,MZ,1547415321,92,-11.38,38.46,76.15,6.42
180,Varde,0,DK,1547412660,97,55.62,8.48,41.0,29.97
181,Baishishan,76,CN,1547415324,86,43.58,127.55,12.88,2.39
182,Dingle,48,PH,1547415325,84,11.0,122.67,75.07,14.25
183,Belle Glade,40,US,1547414100,65,26.68,-80.67,80.96,6.93
184,Kalakamati,56,BW,1547415329,88,-20.59,27.31,68.32,6.2
185,Oksfjord,75,NO,1547412600,92,70.24,22.35,28.4,1.12
186,Temerloh,8,MY,1547415331,96,3.45,102.42,72.15,1.95
187,Saint-Joseph,0,FR,1547413200,93,43.56,6.97,55.4,2.24
188,Mayo,90,CA,1547413200,76,63.59,-135.9,-4.01,2.24
189,Loa Janan,92,ID,1547415337,100,-0.58,117.09,72.69,0.94
190,Greenville,90,US,1547414100,96,34.85,-82.4,42.08,5.75
191,Osypenko,90,UA,1547413200,79,48.04,34.39,28.4,8.95
192,Kudahuvadhoo,64,MV,1547415341,100,2.67,72.89,80.52,13.13
193,Rome,20,IT,1547414400,86,41.89,12.48,41.0,5.82
194,Lamar,90,US,1547412780,88,38.09,-102.62,33.08,8.05
195,Chokurdakh,24,RU,1547415345,42,70.62,147.9,-26.81,1.72
196,Maceio,40,BR,1547413200,78,-9.67,-35.74,78.8,13.87
197,Pundaguitan,76,PH,1547415349,100,6.37,126.17,79.48,11.56
198,Fortuna,0,ES,1547413200,87,38.18,-1.13,44.6,4.7
199,Calama,75,CL,1547413200,46,-22.46,-68.93,71.6,20.8
200,Doha,0,QA,1547413200,82,25.29,51.53,66.2,5.82
201,Aykhal,0,RU,1547415354,0,65.95,111.51,-49.49,2.73
202,Togur,76,RU,1547415355,78,58.36,82.83,11.4,13.13
203,Kulhudhuffushi,0,MV,1547415356,100,6.62,73.07,82.09,7.99
204,Saint-Leu,0,RE,1547413200,65,-21.15,55.28,78.8,4.7
205,Oktyabrskiy,75,RU,1547413200,86,55.61,37.97,26.6,6.71
206,Torbay,90,CA,1547413200,73,47.66,-52.73,26.6,19.46
207,Rafaela,64,AR,1547415363,100,-31.25,-61.49,77.23,4.18
208,Lazaro Cardenas,5,MX,1547412000,34,28.39,-105.62,64.4,8.05
209,Shetpe,80,KZ,1547415367,90,44.14,52.16,32.59,4.18
210,Kapit,92,MY,1547415368,98,2.02,112.94,69.9,2.28
211,Kilinochchi,80,LK,1547415369,97,9.4,80.4,78.49,14.36
212,Kahului,40,US,1547412960,54,20.89,-156.47,80.96,6.93
213,Ribeira Grande,75,PT,1547413200,72,38.52,-28.7,60.8,9.17
214,Buckeye,1,US,1547414100,58,33.37,-112.58,60.08,4.7
215,Kupang,20,ID,1547413200,94,-10.16,123.6,73.4,1.12
216,San Pedro,80,AR,1547415376,91,-33.68,-59.66,74.62,6.76
217,Gat,12,SN,1547413200,32,14.69,-16.54,84.2,2.24
218,Carmen,24,PH,1547415379,94,7.2,124.8,69.13,2.95
219,Bria,20,CF,1547415380,73,6.54,21.99,73.63,2.84
220,Nevel,80,RU,1547415382,95,56.02,29.92,30.43,14.47
221,Saskylakh,0,RU,1547415383,0,71.97,114.09,-57.68,7.2
222,Hovd,90,NO,1547412600,92,63.83,10.7,32.0,33.33
223,Tiksi,0,RU,1547415385,0,71.64,128.87,-38.11,2.17
224,Ponta do Sol,20,BR,1547415387,70,-20.63,-46.0,81.64,2.62
225,Gizo,75,IL,1547414400,58,31.8,34.94,59.0,12.75
226,La Asuncion,80,EC,1547415389,94,-1.64,-78.74,51.76,1.61
227,Oum Hadjer,8,TD,1547415391,22,13.3,19.7,75.52,12.57
228,Opuwo,8,NA,1547415392,30,-18.06,13.84,64.99,4.74
229,Berdigestyakh,44,RU,1547415393,40,62.1,126.7,-26.32,2.73
230,Christchurch,92,NZ,1547413200,93,-43.53,172.64,51.8,11.41
231,Kavieng,48,PG,1547415396,100,-2.57,150.8,83.44,12.24
232,Kidal,0,ML,1547415398,26,18.44,1.41,57.39,9.78
233,Albert Lea,0,US,1547414160,55,43.65,-93.37,35.6,4.7
234,Tay Ninh,0,VN,1547415400,92,11.3,106.1,69.94,2.84
235,Mbandaka,56,CD,1547415402,98,0.05,18.26,73.59,2.39
236,Praia,40,BR,1547409600,48,-20.25,-43.81,86.0,9.17
237,Mount Gambier,0,AU,1547413200,93,-37.83,140.78,59.0,1.12
238,Klaksvik,20,FO,1547414400,74,62.23,-6.59,30.2,20.8
239,Blackwater,76,GB,1547414400,57,51.33,-0.78,51.8,11.41
240,San Carlos de Bariloche,0,AR,1547413200,11,-41.13,-71.31,77.0,10.29
241,Okhotsk,0,RU,1547415410,100,59.36,143.24,-11.74,8.66
242,Larsnes,75,NO,1547414400,74,62.2,5.58,30.2,23.04
243,San Cristobal,75,EC,1547413200,63,-0.39,-78.55,66.2,20.8
244,Minamata,20,JP,1547413200,100,32.18,130.48,37.4,8.05
245,Port Lincoln,0,AU,1547415417,96,-34.72,135.86,65.53,10.0
246,Chapais,90,CA,1547413980,77,49.78,-74.86,-0.41,4.7
247,Pitimbu,20,BR,1547413200,78,-7.47,-34.81,80.6,12.75
248,Tonaya,48,MX,1547415421,84,19.79,-103.97,64.63,0.6
249,Mahebourg,40,MU,1547413200,74,-20.41,57.7,78.8,11.41
250,Taltal,0,CL,1547415423,59,-25.41,-70.49,69.58,4.41
251,Makakilo City,90,US,1547413020,60,21.35,-158.09,80.96,8.05
252,Zaozerne,92,UA,1547415426,97,51.37,23.94,34.57,18.05
253,Lagoa,0,PT,1547413200,76,37.14,-8.45,48.2,5.82
254,Riyadh,8,SA,1547413200,19,24.63,46.72,66.2,11.41
255,Geraldton,90,CA,1547413200,79,49.72,-86.95,26.6,11.41
256,Moranbah,0,AU,1547415432,82,-22.0,148.04,70.44,11.56
257,Jeremie,48,HT,1547415434,100,18.65,-74.12,75.3,1.39
258,Sterling,90,US,1547414580,100,39.0,-77.4,32.0,9.17
259,Lorengau,88,PG,1547415436,96,-2.02,147.27,84.16,16.04
260,Tasiilaq,80,GL,1547412600,92,65.61,-37.64,17.6,14.7
261,Kieta,48,PG,1547415442,100,-6.22,155.63,79.12,3.96
262,Along,0,IN,1547415443,51,28.17,94.8,46.77,2.39
263,Westport,56,IE,1547415444,92,53.8,-9.52,46.72,16.82
264,Hobyo,80,SO,1547415446,85,5.35,48.53,74.98,15.26
265,Lubao,75,PH,1547413200,69,14.94,120.6,77.0,2.24
266,Kodiak,90,US,1547412900,81,39.95,-94.76,32.0,6.93
267,Prince Rupert,90,CA,1547413200,76,54.32,-130.32,50.0,12.75
268,Visselhovede,75,DE,1547414400,81,52.98,9.6,44.6,25.28
269,Ayan,92,TR,1547415452,97,40.67,33.6,30.34,2.62
270,Dunedin,0,NZ,1547415218,85,-45.87,170.5,53.34,14.58
271,Namibe,0,AO,1547415454,100,-15.19,12.15,72.87,9.89
272,Banfora,0,BF,1547415457,31,10.64,-4.75,74.71,7.87
273,Ostrovnoy,76,RU,1547415458,92,68.05,39.51,18.64,8.77
274,Sawtell,92,AU,1547413200,83,-30.38,153.1,71.6,3.36
275,Vila,0,IT,1547414400,74,45.18,8.4,48.2,4.7
276,Alugan,80,PH,1547415462,93,12.22,125.48,78.0,14.58
277,Gatesville,1,US,1547414100,61,31.44,-97.74,48.56,8.21
278,Bathsheba,40,BB,1547413200,65,13.22,-59.52,78.8,12.75
279,Bay City,1,US,1547414160,63,43.59,-83.89,31.1,11.41
280,Merauke,80,ID,1547415467,100,-8.49,140.4,76.69,6.76
281,Natchez,90,US,1547412960,75,31.56,-91.4,43.34,9.17
282,Avera,90,US,1547414100,90,33.19,-82.53,46.94,5.82
283,Cap Malheureux,40,MU,1547413200,74,-19.98,57.61,78.8,11.41
284,Wencheng,76,CN,1547415473,100,27.79,120.09,40.42,0.94
285,Shimoda,0,JP,1547415474,100,34.7,138.93,47.53,17.49
286,Malaya Vishera,80,RU,1547415475,92,58.85,32.22,26.92,8.21
287,Fuling,92,CN,1547415477,100,29.71,107.39,41.5,2.28
288,Krasnyy Kholm,88,RU,1547415478,93,58.06,37.11,24.04,11.45
289,Vila Franca do Campo,20,PT,1547413200,77,37.72,-25.43,59.0,9.17
290,Sitka,32,US,1547415480,88,37.17,-99.65,35.47,4.63
291,Bartica,20,GY,1547413200,62,6.41,-58.62,84.2,16.11
292,Olavarria,80,AR,1547415483,94,-36.89,-60.32,74.22,6.53
293,Murgab,75,TM,1547413200,48,37.5,61.97,44.6,11.41
294,Kumluca,68,TR,1547415485,93,36.37,30.29,23.32,1.5
295,Chuy,92,UY,1547415279,100,-33.69,-53.46,71.29,13.24
296,Mae Sai,0,MM,1547409600,100,20.44,99.89,64.4,2.24
297,Santa Isabel do Rio Negro,20,BR,1547415489,75,-0.41,-65.02,83.98,2.84
298,Sinnamary,100,GF,1547415490,95,5.38,-52.96,79.21,8.1
299,Itaituba,40,BR,1547409600,59,-4.26,-55.99,89.6,4.7
300,Ambovombe,100,MG,1547415493,99,-25.18,46.09,76.51,3.4
301,Inverness,92,GB,1547414400,93,57.48,-4.23,41.0,14.99
302,Ancud,0,CL,1547413200,52,-41.87,-73.83,64.4,8.05
303,Alyangula,36,AU,1547413200,100,-13.85,136.42,77.0,6.76
304,El Real de Santa Maria,0,PA,1547415499,66,8.11,-77.73,86.05,9.33
305,Leningradskiy,24,RU,1547415500,100,69.38,178.42,-17.32,8.43
306,Alekseyevka,0,RU,1547413200,92,53.25,50.49,10.4,4.47
307,Weinan,80,CN,1547413200,77,34.5,109.46,32.0,2.24
308,Saint-Pierre,90,FR,1547413200,100,48.95,4.24,50.0,18.34
309,Port Hedland,40,AU,1547414100,83,-20.31,118.58,82.4,18.34
310,Prince George,75,CA,1547413200,69,53.92,-122.75,37.4,6.93
311,Zverinogolovskoye,92,RU,1547415512,90,54.46,64.85,23.55,15.26
312,Asyut,0,EG,1547409600,62,27.18,31.19,51.8,18.34
313,Sabzevar,48,IR,1547415462,70,36.21,57.68,30.75,4.18
314,Kitimat,90,CA,1547414160,100,54.02,-128.69,33.8,2.24
315,Weymouth,40,US,1547413380,50,42.22,-70.94,26.96,9.17
316,Vuktyl,76,RU,1547415518,76,63.86,57.31,14.37,7.99
317,Luwuk,68,ID,1547415519,100,-0.95,122.79,76.33,2.62
318,Tabou,0,CI,1547415520,99,4.42,-7.36,83.08,7.87
319,Muzaffargarh,0,PK,1547415522,94,30.08,71.19,46.77,7.76
320,Sosnovo-Ozerskoye,0,RU,1547415523,63,52.53,111.54,-16.01,11.01
321,Bataipora,20,BR,1547415525,97,-22.3,-53.27,79.62,8.1
322,Bogo,8,CM,1547415527,32,10.74,14.61,70.17,9.44
323,Fairbanks,1,US,1547413080,76,64.84,-147.72,-11.75,2.95
324,Kiruna,75,SE,1547414400,92,67.86,20.23,6.8,2.62
325,Korsor,32,DK,1547414400,80,55.33,11.14,41.0,20.8
326,Husavik,88,CA,1547415532,97,50.56,-96.99,18.6,4.63
327,Hambantota,80,LK,1547415533,100,6.12,81.12,78.76,16.26
328,San Quintin,8,PH,1547415534,81,17.54,120.52,61.84,3.4
329,Achinsk,12,RU,1547415536,67,56.27,90.5,-4.72,10.78
330,Voh,32,NC,1547415537,100,-20.95,164.69,77.5,19.06
331,Viedma,36,AR,1547415538,36,-40.81,-62.99,76.02,15.59
332,Aloleng,0,PH,1547415539,100,16.13,119.78,74.8,7.65
333,Marktoberdorf,75,DE,1547414400,93,47.78,10.62,39.2,28.86
334,Nanpiao,0,CN,1547415542,63,41.1,120.75,6.67,2.73
335,Bairnsdale,0,AU,1547415545,84,-37.83,147.63,69.54,3.18
336,Matara,76,PE,1547415510,64,-13.74,-72.9,56.04,2.28
337,Livramento,75,BR,1547413200,69,-3.03,-60.18,82.4,2.24
338,Lavrentiya,68,RU,1547415549,100,65.58,-170.99,-4.22,30.8
339,Auki,0,NG,1547415550,27,12.18,6.51,68.86,8.99
340,Godo,20,JP,1547413200,69,35.42,136.61,39.2,11.41
341,Jalu,32,LY,1547415552,74,29.03,21.55,48.12,6.2
342,Atar,12,MR,1547415554,13,20.52,-13.05,66.39,8.32
343,Saint-Paul,90,FR,1547413200,100,45.22,1.9,42.8,6.93
344,Liwale,56,TZ,1547415556,86,-9.8,37.92,73.9,5.19
345,Buala,64,SB,1547415558,87,-8.15,159.59,82.99,8.88
346,Livadiya,80,RU,1547415559,100,42.87,132.68,34.35,1.5
347,La Libertad,75,PE,1547413200,59,-16.38,-71.56,62.6,10.29
348,Harindanga,0,IN,1547413200,82,22.04,88.32,59.0,2.73
349,Simao,0,CN,1547415564,85,22.76,100.79,44.07,2.06
350,Batagay-Alyta,0,RU,1547415565,0,67.8,130.41,-48.86,2.62
351,Sann,0,PK,1547413200,76,26.04,68.14,50.0,4.7
352,Uhlove,80,UA,1547415569,100,44.82,33.6,33.58,7.2
353,Calvinia,0,ZA,1547415570,71,-31.47,19.78,56.67,3.51
354,Florianopolis,40,BR,1547413200,78,-27.6,-48.55,82.4,8.05
355,Ulaanbaatar,0,MN,1547413200,75,47.92,106.92,-13.01,4.47
356,Kabare,48,RW,1547415574,91,-1.65,29.38,60.0,4.74
357,Yabelo,0,ET,1547415575,29,4.89,38.09,63.42,7.2
358,Maraba,20,BR,1547413200,66,-5.35,-49.1,87.8,3.36
359,Port Moresby,40,PG,1547413200,88,-9.47,147.16,78.8,6.93
360,Lucea,20,JM,1547413200,74,18.44,-78.17,82.4,13.87
361,Alekseyevsk,32,RU,1547415580,55,57.84,108.35,-11.42,5.75
362,Maloy,48,ID,1547415581,88,1.0,118.1,76.15,1.83
363,Vila do Maio,40,CV,1547413200,68,15.13,-23.22,71.6,8.05
364,Cartagena del Chaira,48,CO,1547415584,82,1.33,-74.84,79.89,2.95
365,Tabuk,80,PH,1547415586,99,17.41,121.44,61.62,0.72
366,Licata,75,IT,1547412600,93,37.11,13.95,44.6,2.24
367,Hami,36,CN,1547415566,63,42.84,93.51,8.11,7.99
368,Inhambane,8,MZ,1547415497,97,-23.87,35.38,80.74,8.43
369,Bure,20,NG,1547415591,23,10.52,10.33,71.92,10.45
370,Itapaci,8,BR,1547415592,60,-14.95,-49.55,84.84,4.18
371,Coihaique,0,CL,1547413200,26,-45.58,-72.07,78.8,5.82
372,Katsina,0,NG,1547409600,24,12.99,7.6,71.6,9.17
373,Erzincan,75,TR,1547412600,92,39.75,39.49,17.6,2.24
374,Taguatinga,20,BR,1547413200,54,-15.83,-48.06,82.4,12.75
375,Luanda,40,AO,1547413200,83,-8.83,13.24,78.8,6.93
376,Ixtahuacan,0,GT,1547415618,47,15.42,-91.77,71.29,2.39
377,Cayenne,75,GF,1547413200,74,4.94,-52.33,80.6,11.41
378,Nizhniy Tsasuchey,0,RU,1547415623,52,50.52,115.13,-5.26,16.82
379,Upington,0,ZA,1547415403,38,-28.46,21.24,70.84,6.42
380,Sistranda,90,NO,1547414400,86,63.73,8.83,30.2,28.86
381,Rapid Valley,1,US,1547414100,60,44.06,-103.15,48.2,3.36
382,Jieshi,48,CN,1547415628,96,22.82,115.83,60.49,15.03
383,Sabha,0,LY,1547415629,76,27.03,14.43,30.84,6.76
384,Yellandu,0,IN,1547415631,88,17.59,80.32,62.7,4.18
385,Artsyz,36,UA,1547415632,89,46.0,29.43,22.65,10.78
386,Mapiripan,36,CO,1547415633,54,2.89,-72.13,87.85,7.43
387,Kununurra,20,AU,1547413200,83,-15.77,128.74,78.8,2.84
388,Hargeysa,32,SO,1547415488,93,9.56,44.06,49.02,2.73
389,Kirillov,36,RU,1547415638,86,59.86,38.38,17.2,9.22
390,Samarai,68,PG,1547415642,100,-10.62,150.67,81.42,11.79
391,Shumikha,92,RU,1547415643,93,55.23,63.28,24.54,15.14
392,Ilulissat,0,GL,1547412600,64,69.22,-51.1,-0.41,10.29
393,Brae,36,GB,1547414400,100,60.4,-1.35,35.6,28.86
394,Morristown,90,US,1547414100,100,36.21,-83.29,44.6,5.82
395,Lochmaben,68,GB,1547412600,80,55.13,-3.44,41.0,20.8
396,Gorazde,0,BA,1547415000,86,43.67,18.98,26.6,10.29
397,Miri,8,NG,1547415651,30,10.31,9.75,67.69,7.09
398,Sabae,75,JP,1547413200,100,35.95,136.19,33.8,3.36
399,Canutama,48,BR,1547415654,82,-6.53,-64.38,82.0,2.39
400,Muros,40,ES,1547413200,87,42.77,-9.06,44.6,6.93
401,Xai-Xai,0,MZ,1547415678,85,-25.04,33.64,82.59,15.26
402,Lalmohan,0,BD,1547415679,84,22.34,90.74,61.35,7.65
403,Mae Hong Son,0,MM,1547415680,90,19.3,97.96,56.8,1.05
404,Izhma,76,RU,1547415682,76,65.01,53.91,15.9,7.76
405,Ponferrada,0,ES,1547415683,80,42.55,-6.59,24.27,1.72
406,Amazar,48,RU,1547415685,62,53.86,120.88,-15.02,2.73
407,Natal,20,BR,1547413200,78,-5.81,-35.21,82.4,12.75
408,Severobaykalsk,8,RU,1547415687,39,55.65,109.32,-27.53,2.28
409,Ciudad Bolivar,0,VE,1547415689,32,8.12,-63.55,93.07,13.35
410,Bonito,88,BR,1547415691,84,-1.36,-47.3,80.38,6.31
411,Shirokiy,68,RU,1547415692,92,53.87,39.17,22.51,11.01
412,Den Helder,75,NL,1547414940,81,52.96,4.76,48.2,20.8
413,Neryungri,56,RU,1547415697,71,56.66,124.71,-12.68,9.89
414,Kologriv,88,RU,1547415699,84,58.83,44.31,20.17,8.43
415,Umm Kaddadah,8,SD,1547415701,27,13.6,26.69,63.19,11.45
416,Gornopravdinsk,80,RU,1547415705,83,60.06,69.92,22.33,10.78
417,Marrakesh,0,MA,1547413200,37,31.63,-7.99,51.8,3.36
418,Marawi,64,PH,1547415708,97,8.0,124.29,68.5,2.39
419,Kavarna,0,BG,1547413200,86,43.43,28.33,28.4,3.36
420,Goderich,0,CA,1547415570,77,43.74,-81.71,22.96,7.2
421,Nanortalik,64,GL,1547415715,100,60.14,-45.24,26.07,14.81
422,Sayyan,0,YE,1547415717,62,15.17,44.32,35.79,1.16
423,Rabo de Peixe,20,PT,1547413200,77,37.8,-25.58,59.0,9.17
424,Sobrance,90,SK,1547415000,95,48.74,22.18,32.0,11.41
425,Beringovskiy,24,RU,1547415721,90,63.05,179.32,-10.79,30.13
426,Puerto del Rosario,0,ES,1547413200,67,28.5,-13.86,62.6,6.93
427,Zemaiciu Naumiestis,92,LT,1547415724,95,55.36,21.7,35.74,12.8
428,Chandbali,0,IN,1547415725,100,20.77,86.74,66.7,3.62
429,Burnie,100,AU,1547415727,96,-41.05,145.91,64.27,20.74
430,Sidi Ali,0,DZ,1547415728,84,36.1,0.42,34.62,2.62
431,Port Shepstone,100,ZA,1547415729,88,-30.74,30.45,72.87,12.46
432,Turka,80,UA,1547415730,92,49.16,23.03,29.4,13.02
433,Vestmannaeyjar,12,IS,1547415732,100,63.44,-20.27,25.93,2.95
434,Changji,64,CN,1547415733,89,32.07,116.17,30.39,4.74
435,Acapulco,20,MX,1547412600,70,16.86,-99.88,86.0,8.05
436,Noyabrsk,92,RU,1547415735,87,63.2,75.45,17.52,19.28
437,Marsa Matruh,64,EG,1547415737,82,31.35,27.25,53.29,16.37
438,Nelson,0,CA,1547415562,63,49.49,-117.29,32.19,2.17
439,Nguruka,20,TZ,1547415739,97,-5.11,31.04,67.69,3.18
440,Kollam,20,IN,1547413200,83,8.88,76.6,78.8,3.36
441,Genhe,56,CN,1547415742,56,50.78,121.52,-13.36,2.84
442,Ahuimanu,90,US,1547413020,66,21.44,-157.84,80.96,4.7
443,Anahuac,1,US,1547414100,45,29.77,-94.68,59.0,12.75
444,Solwezi,48,ZM,1547415747,96,-12.18,26.4,62.65,8.77
445,Starobaltachevo,68,RU,1547415748,88,56.0,55.92,17.07,10.22
446,Kamenka,88,RU,1547415750,86,53.19,44.05,17.38,8.66
447,Agirish,36,RU,1547415752,82,61.92,63.02,18.6,7.87
448,Leiyang,80,CN,1547415753,99,26.42,112.85,42.72,3.51
449,Mzimba,92,MW,1547415754,98,-11.9,33.6,63.73,4.74
450,Gold Coast,92,AU,1547413200,65,-28.0,153.41,77.0,11.41
451,Imperial,1,US,1547412960,53,32.85,-115.57,62.96,3.62
452,Aleksandrovsk-Sakhalinskiy,0,RU,1547415758,100,50.9,142.16,0.24,0.38
453,Clyde River,75,CA,1547413200,65,70.47,-68.59,-36.41,8.05
454,Maragogi,24,BR,1547415648,80,-9.01,-35.22,80.47,8.1
455,Galle,1,US,1547412960,54,29.74,-97.91,57.02,12.75
456,Gondanglegi,36,ID,1547415763,99,-7.75,112.01,69.99,2.62
457,Pimenta Bueno,36,BR,1547415765,80,-11.68,-61.19,79.66,2.84
458,Egvekinot,8,RU,1547415766,69,66.32,-179.17,-24.2,11.12
459,Faya,0,SA,1547413200,44,18.39,42.45,59.0,8.05
460,Bauchi,8,NG,1547415768,30,10.31,9.85,67.69,7.09
461,Nova Olinda do Norte,68,BR,1547415770,98,-3.89,-59.1,75.57,5.41
462,Rapar,0,IN,1547415771,34,23.57,70.65,60.0,11.68
463,Wawa,0,NG,1547415772,45,9.9,4.41,72.01,5.64
464,Linares,0,CL,1547415636,38,-35.85,-71.6,72.82,3.51
465,Varzea da Palma,100,BR,1547415707,33,-17.6,-44.73,91.99,6.76
466,Kurilsk,68,RU,1547415775,100,45.23,147.88,26.65,10.78
467,Talnakh,64,RU,1547415777,66,69.49,88.39,-9.17,24.65
468,Borogontsy,20,RU,1547415778,0,62.67,131.17,-49.85,2.62
469,Monduli,20,TZ,1547413200,82,-3.3,36.45,62.6,5.75
470,Harrismith,8,ZA,1547415781,74,-28.27,29.13,62.29,4.63
471,Aginskoye,0,RU,1547415782,39,51.11,114.54,-5.39,19.51
472,Bloomington,75,US,1547414100,84,40.47,-88.99,30.92,13.87
473,Mercedes,76,UY,1547415784,97,-33.25,-58.03,71.83,7.65
474,Pakruojis,90,LT,1547414400,100,55.98,23.85,33.8,13.87
475,Jardim,12,BR,1547415789,56,-21.48,-56.15,90.37,5.19
476,Noumea,75,NC,1547415000,65,-22.28,166.46,80.6,11.41
477,Narsaq,8,GL,1547412600,62,60.91,-46.05,24.8,8.05
478,Coahuayana,44,MX,1547415792,56,18.62,-100.35,77.1,2.73
479,Nushki,0,PK,1547415793,68,29.55,66.02,31.74,3.18
480,Bahia Honda,76,CU,1547415794,66,22.9,-83.16,79.12,5.19
481,Steubenville,90,US,1547415240,96,40.37,-80.63,32.0,11.41
482,Matata,92,NZ,1547415798,100,-37.89,176.76,66.7,16.6
483,Nouadhibou,0,MR,1547413200,39,20.93,-17.03,66.2,3.36
484,Byron Bay,40,AU,1547413200,78,-28.65,153.62,77.0,6.93
485,Marshall,90,US,1547415300,80,39.39,-87.69,35.96,6.93
486,Vardo,90,US,1547414400,78,39.62,-77.74,30.2,10.29
487,Bintulu,75,MY,1547413200,100,3.17,113.03,75.2,4.7
488,Morant Bay,75,JM,1547413200,54,17.88,-76.41,82.4,16.11
489,Eureka,1,US,1547412900,57,40.8,-124.16,64.4,5.82
490,Melo,80,UY,1547415808,86,-32.37,-54.17,78.85,8.43
491,Zabaykalsk,36,CN,1547415810,64,49.64,117.33,-1.52,17.49
492,Madaripur,0,BD,1547415811,93,23.17,90.2,54.28,2.95
493,Mount Pleasant,90,US,1547414100,66,33.16,-94.97,41.36,12.75
494,La Paz,5,MX,1547412000,50,24.15,-110.32,75.2,9.17
495,Urcos,90,PE,1547413200,76,-13.69,-71.62,53.6,2.84
496,Sukumo,0,JP,1547415816,87,32.94,132.72,37.14,6.2
497,Kuching,75,MY,1547413200,100,1.56,110.34,75.2,2.95
498,Hammerfest,20,NO,1547414400,92,70.66,23.68,28.4,8.05
499,Celestun,0,MX,1547415731,95,20.87,-90.4,75.7,14.92
500,Kabwe,48,ZM,1547415821,96,-14.44,28.44,65.71,7.65
501,Honiara,56,SB,1547415823,93,-9.43,159.96,77.37,2.62
502,Skjervoy,75,NO,1547412600,92,70.03,20.97,28.4,1.12
503,Waingapu,64,ID,1547415825,100,-9.65,120.26,73.18,3.51
504,Cabra,0,ES,1547413200,80,37.47,-4.43,35.6,2.24
505,Agadez,0,NE,1547415827,31,16.97,7.99,59.86,8.43
506,Buraydah,75,SA,1547413200,55,26.33,43.97,66.2,10.29
507,Banyo,8,CM,1547415831,28,6.75,11.81,72.19,7.65
508,Karratha,20,AU,1547415731,66,-20.74,116.85,81.87,7.31
509,Yarmouth,64,GB,1547414400,81,50.71,-1.5,50.0,14.99
510,Sainte-Rose,90,CA,1547414160,66,45.61,-73.79,12.2,2.24
511,Mwandiga,75,TZ,1547413200,94,-4.84,29.66,71.6,2.73
512,Kungurtug,0,RU,1547415838,34,50.6,97.53,-26.9,2.95
513,Phek,44,IN,1547415839,83,25.7,94.46,43.84,2.06
514,Labuhan,80,ID,1547415784,99,-2.54,115.51,70.35,0.83
515,Havelock,90,US,1547414340,100,34.88,-76.9,50.0,10.29
516,The Valley,40,AI,1547413200,69,18.22,-63.06,80.6,9.17
517,Harper,75,US,1547412900,52,30.3,-99.24,56.3,6.93
518,Cam Ranh,20,VN,1547413200,78,11.92,109.15,73.4,4.7
519,Kilifi,20,KE,1547415847,88,-3.63,39.85,76.2,7.2
520,Abaza,0,RU,1547415848,69,52.65,90.1,-10.88,0.83
521,Ust-Nera,24,RU,1547415777,0,64.57,143.24,-51.29,0.72
522,Semey,0,KZ,1547415850,75,50.41,80.25,2.94,10.22
523,Derbent,64,RU,1547415851,90,42.06,48.29,27.73,3.62
524,Sao Miguel do Araguaia,80,BR,1547415853,61,-13.28,-50.16,87.31,3.96
525,Banjar,48,ID,1547415855,98,-7.37,108.54,69.9,1.95
526,Thinadhoo,76,MV,1547415744,100,0.53,72.93,81.91,9.66
527,Siderno,40,IT,1547412900,76,38.28,16.3,50.0,3.36
528,Ibra,0,OM,1547415860,99,22.69,58.55,55.18,1.95
529,Poum,20,MK,1547415861,84,41.28,20.71,15.58,1.95
530,Adre,8,TD,1547415862,49,13.47,22.2,64.45,5.64
531,Salalah,20,OM,1547412600,73,17.01,54.1,73.4,2.24
532,Shinpokh,5,PK,1547415000,75,34.33,71.18,41.0,4.7
533,Marfino,75,RU,1547413200,92,56.07,37.56,26.6,11.18
534,Maseru,0,LS,1547415869,57,-29.31,27.48,55.05,1.72
535,Zhumadian,80,CN,1547415870,80,33.01,114.02,27.87,3.29
536,Panubigan,75,PH,1547413200,94,7.13,122.25,77.0,2.24
537,Ketchikan,90,US,1547412960,89,55.34,-131.65,48.92,26.4
